     2.11           OBSERVATION DATA    G (GPS)             RINEX VERSION / TYPE
teqc  2019Feb25     root                20210205 22:29:10UTCPGM / RUN BY / DATE
Linux 2.4.21-27.ELsmp|Opteron|gcc|Linux 64|=+               COMMENT
teqc  2019Feb25     root                20210205 22:29:09UTCCOMMENT
     2.11           OBSERVATION DATA    G (GPS)             COMMENT
teqc  2019Feb25     NOAA/NOS/NGS/CORS   20210202 00:50:16UTCCOMMENT
+39.764739464 (latitude)                                    COMMENT
-084.18064853 (longitude)                                   COMMENT
+196.575      (elevation)                                   COMMENT
+.000000      (antenna height)                              COMMENT
BIT 2 OF LLI FLAGS DATA COLLECTED UNDER A/S CONDITION       COMMENT
 SNR is mapped to RINEX snr flag value [0-9]                COMMENT
  L1 & L2: min(max(int(snr_dBHz/6), 0), 9)                  COMMENT
teqc.e edited: all SBAS satellites excluded                 COMMENT
teqc.e edited: all QZSS satellites excluded                 COMMENT
OHDT                                                        MARKER NAME
48                                                          MARKER NUMBER
David Beiter        OHDT                                    OBSERVER / AGENCY
4852K33878          TRIMBLE NETR8       48.01               REC # / TYPE / VERS
31177266            TRM57971.00     NONE                    ANT # / TYPE
   497796.5080 -4884306.6100  4058066.6380                  APPROX POSITION XYZ
        0.0000        0.0000        0.0000                  ANTENNA: DELTA H/E/N
     1     1                                                WAVELENGTH FACT L1/2
     8    L1    L2    C1    C2    P1    P2    S1    S2      # / TYPES OF OBSERV
    15.0000                                                 INTERVAL
teqc.w windowed: start @ 2021 Feb  1 00:00:00.000           COMMENT
teqc.w windowed:  end  @ 2021 Feb  1 01:00:00.000           COMMENT
teqc.w edited: all GLONASS satellites excluded              COMMENT
Forced Modulo Decimation to 15 seconds                      COMMENT
  2021     2     1     0     0    0.0000000     GPS         TIME OF FIRST OBS
                                                            END OF HEADER
 21  2  1  0  0  0.0000000  0 12G01G03G07G08G13G14G17G19G21G22G28G30
 108390154.535 8  84459939.290 8  20625955.703    20625960.578
  20625960.918          48.000          48.400
 131958823.765 5 102825094.808 5  25110928.547    25110935.938
  25110935.254          31.200          31.600
 119430247.449 7  93062553.013 6  22726815.039    22726818.063
  22726817.992          42.700          41.100
 128928800.637 6 100464102.888 6  24534335.039    24534341.512
  24534341.453          36.000          40.400
 125912086.445 7  98113411.61043  23960291.234
  23960295.309          42.000          23.500
 107157953.955 8  83499732.606 8  20391472.734    20391476.074
  20391476.195          48.700          53.900
 112241722.502 8  87461111.465 7  21358883.602    21358886.715
  21358887.297          48.500          47.700
 120747823.582 7  94089311.67845  22977560.891
  22977562.488          43.800          31.800
 120327195.989 7  93761488.66245  22897492.516
  22897494.461          43.900          31.500
 128509412.842 6 100137213.94243  24454526.547
  24454527.922          39.900          23.800
 110001144.837 8  85715206.15346  20932513.750
  20932515.543          48.700          40.500
 110755642.296 8  86303130.035 8  21076091.867    21076097.699
  21076097.180          48.900          48.900
 21  2  1  0  0 15.0000000  0 12G01G03G07G08G13G14G17G19G21G22G28G30
 108401444.869 7  84468736.984 8  20628103.922    20628109.234
  20628109.156          47.200          48.000
 131917141.412 4 102792615.012 5  25102995.578    25103006.242
  25103003.457          29.400          32.100
 119482561.952 7  93103317.586 6  22736770.242    22736773.027
  22736773.391          43.000          40.900
 128975543.159 5 100500525.618 6  24543230.773    24543237.438
  24543236.176          35.100          41.300
 125935914.650 7  98131979.06844  23964826.664
  23964829.633          42.600          25.400
 107147376.009 7  83491490.057 8  20389459.625    20389462.820
  20389463.109          47.900          53.100
 112220634.508 8  87444679.259 7  21354870.859    21354873.676
  21354874.258          48.100          47.900
 120704947.971 7  94055902.12545  22969401.555
  22969403.102          43.300          31.900
 120364164.346 7  93790295.14745  22904527.375
  22904529.445          44.600          30.200
 128481750.859 6 100115659.13743  24449263.859
  24449263.656          39.800          21.700
 109985898.927 8  85703326.23346  20929612.648
  20929614.285          49.100          40.700
 110785758.965 8  86326597.553 8  21081822.945    21081827.984
  21081828.605          48.600          50.000
 21  2  1  0  0 30.0000000  0 11G01G07G08G13G14G17G19G21G22G28G30
 108412898.778 7  84477662.112 8  20630283.648    20630288.535
  20630288.641          47.500          48.900
 119534937.107 7  93144129.379 6  22746736.992    22746739.828
  22746740.145          44.900          40.900
 129022279.074 6 100536943.142 6  24552124.719    24552130.273
  24552129.988          36.300          40.900
 125959846.217 7  98150627.05343  23969380.766
  23969382.938          42.600          22.500
 107136874.822 8  83483307.335 8  20387461.094    20387464.531
  20387464.898          48.300          52.900
 112199622.031 8  87428305.914 8  21350872.250    21350874.633
  21350875.063          48.800          48.100
 120662128.242 7  94022536.12345  22961253.203
  22961254.934          43.600          31.900
 120401215.541 7  93819166.19844  22911578.133
  22911579.777          44.100          29.900
 128454160.048 6 100094159.78643  24444012.406
  24444012.043          40.500          22.200
 109970699.767 8  85691482.74746  20926720.266
  20926721.934          49.100          40.700
 110815999.890 8  86350161.922 8  21087577.367    21087583.367
  21087583.500          48.100          49.500
 21  2  1  0  0 45.0000000  0 11G01G07G08G13G14G17G19G21G22G28G30
 108424516.490 8  84486714.888 8  20632494.867    20632499.891
  20632500.480          48.100          50.100
 119587372.895 7  93184988.454 6  22756715.492    22756717.707
  22756717.879          44.000          41.400
 129069008.416 6 100573355.627 6  24561017.125    24561022.762
  24561022.699          36.700          41.400
 125983881.298 7  98169355.68343  23973953.508
  23973955.625          42.100          22.600
 107126450.916 7  83475184.818 8  20385477.742    20385481.195
  20385481.254          47.300          52.000
 112178685.494 8  87411991.732 7  21346888.148    21346890.906
  21346891.535          49.300          47.900
 120619364.804 7  93989213.98645  22953115.391
  22953116.875          44.900          32.100
 120438349.594 7  93848101.82945  22918644.031
  22918646.645          44.100          30.500
 128426641.186 6 100072716.55743  24438776.008
  24438775.668          40.400          22.600
 109955547.876 7  85679676.07846  20923836.914
  20923839.020          47.600          40.000
 110846365.295 8  86373823.277 8  21093356.063    21093362.063
  21093361.727          48.100          49.600
 21  2  1  0  1  0.0000000  0 11G01G07G08G13G14G17G19G21G22G28G30
 108436297.790 8  84495895.113 8  20634736.148    20634741.543
  20634742.340          48.000          50.300
 119639868.793 7  93225894.375 6  22766705.109    22766707.238
  22766707.141          45.100          41.100
 129115730.907 5 100609762.757 6  24569908.695    24569913.496
  24569913.633          35.300          40.500
 126008019.438 7  98188164.62043  23978547.328
  23978549.086          42.300          22.800
 107116104.314 7  83467122.541 8  20383509.047    20383512.801
  20383512.805          47.600          51.900
 112157824.536 8  87395736.467 8  21342918.336    21342921.078
  21342921.363          49.100          48.100
 120576657.765 7  93955935.78645  22944988.727
  22944990.156          44.700          31.900
 120475566.220 7  93877101.78945  22925726.969
  22925728.758          44.100          31.300
 128399194.423 6 100051329.48443  24433552.492
  24433552.691          41.300          22.300
 109940443.344 7  85667906.31246  20920962.633
  20920964.211          47.900          39.900
 110876854.806 7  86397581.321 8  21099158.328    21099163.613
  21099163.016          47.500          49.700
 21  2  1  0  1 15.0000000  0 11G01G07G08G13G14G17G19G21G22G28G30
 108448242.269 8  84505202.494 8  20637009.844    20637014.160
  20637014.789          48.300          50.000
 119692424.339 7  93266846.728 6  22776706.023    22776707.938
  22776708.332          45.500          40.400
 129162446.259 5 100646164.324 6  24578797.484    24578803.578
  24578803.566          35.800          41.400
 126032260.218 6  98207053.51243  23983159.539
  23983163.004          41.100          22.200
 107105834.948 7  83459120.460 8  20381554.414    20381557.793
  20381558.426          46.700          51.200
 112137039.023 8  87379539.955 7  21338963.125    21338965.613
  21338965.820          48.600          47.800
 120534006.892 7  93922701.33445  22936873.320
  22936873.527          44.900          31.200
 120512865.028 7  93906165.79845  22932824.500
  22932826.582          44.800          31.600
 128371820.000 6 100029998.75743  24428344.211
  24428343.746          40.900          22.800
 109925385.920 7  85656173.24546  20918097.594
  20918098.977          46.300          39.400
 110907468.018 8  86421435.770 8  21104983.211    21104989.074
  21104989.094          48.300          49.100
 21  2  1  0  1 30.0000000  0 11G01G07G08G13G14G17G19G21G22G28G30
 108460349.987 8  84514637.089 8  20639313.555    20639318.602
  20639318.859          48.800          49.200
 119745039.338 7  93307845.447 6  22786717.867    22786720.156
  22786720.395          45.700          39.800
 129209154.631 6 100682560.468 6  24587685.898    24587691.551
  24587691.695          36.700          40.300
 126056603.307 6  98226022.15343  23987792.422
  23987795.922          41.300          22.600
 107095643.125 7  83451178.791 8  20379615.375    20379618.445
  20379619.117          46.600          51.100
 112116329.012 8  87363402.285 7  21335022.703    21335024.906
  21335025.027          48.800          47.600
 120491412.399 7  93889510.83445  22928766.813
  22928767.813          44.600          31.500
 120550245.749 7  93935293.62545  22939938.273
  22939940.102          44.600          30.700
 128344518.298 6 100008724.66143  24423148.992
  24423148.250          41.900          22.600
 109910375.982 7  85644477.17346  20915241.227
  20915242.449          46.000          40.100
 110938204.778 7  86445386.492 8  21110833.008    21110837.652
  21110837.535          47.700          49.600
 21  2  1  0  1 45.0000000  0 11G01G07G08G13G14G17G19G21G22G28G30
 108472620.716 8  84524198.725 8  20641648.094    20641653.402
  20641653.258          49.500          49.100
 119797713.540 7  93348890.267 6  22796741.469    22796744.094
  22796744.363          46.100          41.300
 129255855.992 5 100718951.152 6  24596573.297    24596578.742
  24596578.707          35.200          40.100
 126081048.353 6  98245070.25343  23992444.250
  23992447.035          40.900          22.500
 107085528.921 7  83443297.608 8  20377690.813    20377693.438
  20377694.180          46.400          50.800
 112095694.369 8  87347323.342 7  21331095.672    21331098.113
  21331097.516          49.500          47.200
 120448874.291 7  93856364.30045  22920672.039
  22920673.457          44.400          31.800
 120587707.999 7  93964484.98845  22947066.781
  22947068.430          44.600          30.500
 128317289.489 7  99987507.41843  24417966.984
  24417966.164          43.200          22.600
 109895413.468 7  85632818.05846  20912393.555
  20912395.266          46.600          39.800
 110969064.824 7  86469433.268 8  21116704.781    21116710.352
  21116709.879          47.500          49.500
 21  2  1  0  2  0.0000000  0 12G01G03G07G08G13G14G17G19G21G22G28G30
 108485054.338 8  84533887.283 8  20644013.680    20644019.230
  20644019.418          48.200          49.700
 131625542.799 4 102565391.50816  25047503.570    25047516.629
                        29.900          36.000
 119850446.467 7  93389980.862 6  22806776.391    22806779.305
  22806779.465          44.600          40.400
 129302549.978 6 100755336.062 6  24605458.195    24605464.098
  24605464.699          37.300          40.100
 126105595.316 6  98264197.75743  23997114.563
  23997118.066          40.600          22.300
 107075492.496 7  83435477.014 8  20375781.211    20375784.016
  20375784.242          45.800          50.100
 112075135.142 8  87331303.184 7  21327183.047    21327186.145
  21327186.012          48.300          47.600
 120406392.908 7  93823261.89645  22912588.617
  22912589.395          43.600          32.100
 120625251.467 7  93993739.66044  22954211.266
  22954212.051          44.500          29.900
 128290134.096 6  99966347.39243  24412799.508
  24412799.156          41.600          22.200
 109880498.661 7  85621196.12246  20909555.617
  20909557.102          47.000          39.300
 111000047.998 8  86493576.002 8  21122601.258    21122606.293
  21122606.250          48.100          49.800
 21  2  1  0  2 15.0000000  0 12G01G03G07G08G13G14G17G19G21G22G28G30
 108497650.832 7  84543702.722 8  20646410.656    20646416.559
  20646417.219          47.900          50.300
 131583914.612 4 102532953.901 5  25039581.250    25039592.633
  25039592.703          27.600          34.300
 119903237.839 7  93431116.970 6  22816821.742    22816825.516
  22816825.582          43.800          41.600
 129349236.790 5 100791715.386 6  24614341.703    24614347.793
  24614347.957          35.400          38.400
 126130243.788 6  98283404.32143  24001805.523
  24001808.816          41.100          22.800
 107065534.110 7  83427717.232 8  20373886.172    20373888.867
  20373889.063          44.600          48.800
 112054651.519 8  87315341.899 7  21323285.453    21323288.137
  21323288.516          48.600          47.700
 120363968.326 7  93790203.77245  22904515.172
  22904515.828          44.100          31.000
 120662876.013 7  94023057.50745  22961370.805
  22961371.617          44.500          30.800
 128263052.591 6  99945244.95943  24407645.289
  24407645.422          40.700          22.800
 109865631.711 7  85609611.48346  20906726.523
  20906728.027          47.000          39.500
 111031154.123 8  86517814.540 8  21128520.383    21128525.770
  21128525.789          48.500          50.000
 21  2  1  0  2 30.0000000  0 12G01G03G07G08G13G14G17G19G21G22G28G30
 108510409.915 8  84553644.844 8  20648839.125    20648844.934
  20648845.461          48.800          50.700
 131542294.838 5 102500522.844 5  25031665.773    25031671.012
  25031671.602          33.400          32.800
 119956087.208 7  93472298.273 6  22826878.773    22826881.645
  22826882.281          44.500          41.900
 129395915.749 5 100828088.586 6  24623224.398    24623231.258
  24623230.426          34.800          38.400
 126154993.226 6  98302689.61443  24006515.211
  24006518.551          40.400          22.600
 107055653.780 7  83420018.266 8  20372005.883    20372008.879
  20372009.008          45.300          48.700
 112034243.119 8  87299439.250 7  21319401.953    21319403.906
  21319403.750          48.300          47.000
 120321600.513 7  93757189.92045  22896452.766
  22896454.137          44.000          31.400
 120700581.315 7  94052438.25345  22968545.961
  22968546.973          46.000          30.900
 128236045.179 6  99924200.18443  24402507.172
  24402505.828          40.600          23.000
 109850812.657 7  85598064.17146  20903906.039
  20903908.273          45.900          39.600
 111062382.866 7  86542148.632 8  21134463.242    21134468.000
  21134467.953          47.300          49.700
 21  2  1  0  2 45.0000000  0 12G01G03G07G08G13G14G17G19G21G22G28G30
 108523331.637 8  84563713.713 8  20651297.930    20651303.586
  20651304.164          48.600          50.800
 131500683.996 5 102468098.925 5  25023746.797    25023752.848
  25023753.012          33.900          35.700
 120008994.498 7  93513524.756 6  22836946.242    22836950.027
  22836950.090          43.200          40.500
 129442587.245 6 100864455.969 6  24632106.563    24632112.137
  24632111.996          37.700          38.700
 126179843.750 6  98322053.68443  24011244.445
  24011247.477          40.700          22.800
 107045851.817 7  83412380.373 8  20370140.172    20370142.953
  20370143.086          43.800          49.000
 112013910.195 8  87283595.461 7  21315532.492    21315535.168
  21315534.609          49.000          47.900
 120279289.750 7  93724220.51245  22888400.898
  22888402.859          43.500          31.800
 120738367.209 7  94081881.82445  22975736.281
  22975737.090          45.400          30.500
 128209112.313 6  99903213.51543  24397381.383
  24397381.523          40.400          23.000
 109836041.736 7  85586554.35746  20901095.563
  20901097.152          47.200          39.200
 111093734.171 8  86566578.201 8  21140429.445    21140434.699
  21140433.695          48.600          48.900
 21  2  1  0  3  0.0000000  0 12G01G03G07G08G13G14G17G19G21G22G28G30
 108536415.503 8  84573908.939 8  20653787.750    20653793.281
  20653793.586          48.800          49.700
 131459082.281 5 102435681.975 6  25015829.602    25015836.313
  25015836.469          32.600          37.000
 120061959.024 7  93554795.797 6  22847025.555    22847029.063
  22847028.699          45.100          41.200
 129489250.903 5 100900817.300 6  24640986.508    24640992.598
  24640992.402          35.000          39.200
 126204794.673 7  98341495.92844  24015992.211
  24015995.090          42.100          24.400
 107036128.066 7  83404803.429 8  20368290.297    20368292.680
  20368293.141          44.100          48.400
 111993652.440 8  87267810.184 8  21311677.453    21311679.895
  21311680.566          48.600          48.800
 120237035.789 7  93691295.37745  22880360.375
  22880362.152          43.300          32.100
 120776232.874 7  94111387.54845  22982942.078
  22982943.090          46.600          30.500
 128182253.961 6  99882284.94343  24392269.664
  24392270.789          39.900          22.500
 109821318.978 7  85575082.08146  20898293.742
  20898295.730          46.500          38.800
 111125207.493 8  86591102.866 8  21146418.328    21146422.965
  21146423.031          48.500          49.100
 21  2  1  0  3 15.0000000  0 12G01G03G07G08G13G14G17G19G21G22G28G30
 108549661.635 8  84584230.608 8  20656308.344    20656313.789
  20656313.773          48.500          48.900
 131417490.356 5 102403272.623 5  25007913.945    25007921.586
  25007920.988          31.600          33.900
 120114980.796 7  93596111.430 7  22857115.094    22857119.055
  22857119.082          44.300          42.000
 129535906.939 5 100937172.642 6  24649864.875    24649871.242
  24649869.965          35.200          37.800
 126229845.690 6  98361016.20044  24020759.336
  24020762.781          40.800          24.000
 107026482.882 7  83397287.697 8  20366454.844    20366457.320
  20366457.902          43.200          48.900
 111973470.028 8  87252083.615 7  21307837.094    21307839.379
  21307839.449          49.100          47.800
 120194839.004 7  93658414.75945  22872331.297
  22872332.551          43.500          32.700
 120814178.637 7  94140955.66345  22990162.586
  22990163.984          45.300          30.700
 128155470.856 6  99861415.01843  24387173.477
  24387173.297          38.300          22.500
 109806644.522 7  85563647.44546  20895501.609
  20895503.242          45.600          38.800
 111156802.822 8  86615722.619 8  21152430.758    21152435.246
  21152434.801          49.100          49.700
 21  2  1  0  3 30.0000000  0 12G01G03G07G08G13G14G17G19G21G22G28G30
 108563069.664 8  84594678.430 8  20658860.516    20658865.180
  20658864.930          48.300          48.600
 131375908.335 5 102370871.176 5  25000001.570    25000009.840
  25000008.066          31.200          33.600
 120168059.126 7  93637471.141 6  22867215.469    22867219.371
  22867219.160          43.700          41.700
 129582554.874 6 100973521.661 6  24658741.063    24658748.176
  24658746.293          37.300          38.900
 126254996.462 6  98380614.22943  24025544.641
  24025548.477          41.600          22.900
 107016916.283 7  83389833.202 8  20364634.352    20364636.586
  20364637.012          43.700          49.100
 111953362.732 8  87236415.631 8  21304010.797    21304013.234
  21304013.117          48.700          48.300
 120152699.092 7  93625578.50745  22864311.711
  22864312.965          43.600          32.500
 120852203.979 7  94170585.80845  22997398.805
  22997400.211          44.900          30.400
 128128762.979 6  99840603.68543  24382092.086
  24382091.461          37.900          23.000
 109792018.403 7  85552250.48646  20892718.281
  20892720.074          46.400          38.800
 111188519.758 8  86640437.094 8  21158466.125    21158471.297
  21158470.195          48.300          48.800
 21  2  1  0  3 45.0000000  0 12G01G03G07G08G13G14G17G19G21G22G28G30
 108576639.448 8  84605252.305 8  20661442.625    20661447.453
  20661447.168          48.200          49.600
 131334336.703 4 102338477.698 6  24992088.336    24992098.359
  24992097.914          28.000          37.400
 120221193.760 7  93678874.727 7  22877327.563    22877330.313
  22877330.180          44.700          42.200
 129629194.856 5 101009864.480 6  24667616.586    24667622.492
  24667622.148          34.800          40.900
 126280246.726 6  98400289.76043  24030350.500
  24030353.148          40.500          21.500
 107007428.356 7  83382440.016 8  20362828.602    20362831.352
  20362831.859          43.200          49.000
 111933330.391 8  87220806.006 8  21300198.539    21300201.523
  21300202.313          48.500          49.300
 120110616.418 7  93592786.83345  22856303.930
  22856304.848          43.200          32.400
 120890308.304 7  94200277.49045  23004650.297
  23004651.621          45.300          30.700
 128102130.661 6  99819851.26043  24377023.117
  24377024.078          38.100          23.200
 109777440.738 7  85540891.27846  20889945.047
  20889946.645          47.000          38.800
 111220358.043 8  86665246.142 8  21164525.031    21164529.832
  21164529.430          49.100          49.900
 21  2  1  0  4  0.0000000  0 12G01G03G07G08G13G14G17G19G21G22G28G30
 108590370.942 8  84615952.173 8  20664055.297    20664060.305
  20664060.719          48.000          50.000
 131292775.784 5 102306092.445 6  24984183.898    24984190.434
  24984189.430          30.500          36.600
 120274384.595 7  93720322.130 6  22887449.266    22887452.098
  22887452.113          45.300          41.300
 129675826.810 5 101046201.083 6  24676489.563    24676495.973
  24676496.008          35.400          39.200
 126305596.218 7  98420042.56043  24035174.141
  24035176.422          42.500          23.600
 106998019.352 7  83375108.316 8  20361038.320    20361040.930
  20361041.336          43.400          49.000
 111913373.156 8  87205254.922 8  21296400.914    21296403.379
  21296403.805          48.600          48.200
 120068591.124 7  93560039.86545  22848306.383
  22848307.996          43.700          32.400
 120928491.730 7  94230030.82345  23011915.945
  23011917.484          45.100          30.200
 128075574.543 6  99799158.21944  24371968.195
  24371970.496          38.600          24.500
 109762911.758 7  85529570.01246  20887179.672
  20887181.594          45.800          38.800
 111252317.575 8  86690149.668 8  21170606.125    21170611.043
  21170611.254          49.500          49.600
 21  2  1  0  4 15.0000000  0 12G01G03G07G08G13G14G17G19G21G22G28G30
 108604263.865 7  84626777.829 8  20666699.211    20666703.965
  20666704.488          47.200          50.300
 131251226.089 5 102273716.153 5  24976274.391    24976284.125
  24976283.105          30.500          33.600
 120327631.063 7  93761812.864 6  22897581.984    22897584.277
  22897584.656          46.300          39.900
 129722450.257 5 101082531.008 6  24685362.094    24685368.289
  24685367.969          34.500          39.400
 126331044.357 6  98439872.27643  24040017.422
  24040019.996          40.200          22.800
 106988689.363 7  83367838.194 8  20359263.313    20359265.469
  20359265.602          43.600          49.300
 111893491.028 8  87189762.372 8  21292617.320    21292619.902
  21292620.090          48.500          49.100
 120026623.221 7  93527337.60545  22840320.469
  22840321.547          43.700          32.600
 120966753.832 7  94259845.46045  23019196.766
  23019198.273          46.700          30.400
 128049094.644 6  99778524.57343  24366929.578
  24366931.504          37.900          22.600
 109748431.482 7  85518286.69146  20884423.867
  20884425.914          47.300          40.200
 111284397.976 7  86715147.377 8  21176711.297    21176715.891
  21176715.492          47.700          49.700
 21  2  1  0  4 30.0000000  0 12G01G03G07G08G13G14G17G19G21G22G28G30
 108618318.361 7  84637729.392 8  20669373.500    20669379.066
  20669379.285          47.400          49.700
 131209688.144 5 102241348.939 6  24968373.836    24968378.824
  24968378.258          32.300          36.400
 120380933.032 7  93803346.843 6  22907724.727    22907727.301
  22907727.309          45.100          39.500
 129769065.436 5 101118854.510 6  24694232.867    24694238.707
  24694237.891          34.600          39.200
 126356591.316 6  98459779.01543  24044877.711
  24044881.879          40.200          22.800
 106979438.739 7  83360629.940 8  20357502.984    20357505.520
  20357505.598          44.100          50.500
 111873683.977 8  87174328.321 8  21288848.641    21288850.781
  21288851.105          48.700          48.500
 119984712.932 7  93494680.25045  22832346.031
  22832346.445          42.200          32.800
 121005094.523 7  94289721.33745  23026493.359
  23026493.895          47.100          30.400
 128022691.822 6  99757950.96643  24361905.984
  24361907.070          36.100          22.300
 109734000.294 7  85507041.62146  20881677.852
  20881679.941          46.600          40.200
 111316599.252 8  86740239.288 8  21182838.734    21182844.340
  21182843.984          48.100          49.800
 21  2  1  0  4 45.0000000  0 12G01G03G07G08G13G14G17G19G21G22G28G30
 108632534.042 7  84648806.533 8  20672078.516    20672083.684
  20672084.078          47.800          49.100
 131168162.196 5 102208991.011 6  24960470.281    24960476.648
  24960477.121          32.000          36.300
 120434290.015 7  93844923.724 6  22917878.148    22917880.758
  22917880.801          44.600          38.600
 129815672.347 5 101155171.570 6  24703101.391    24703107.719
  24703106.605          34.800          39.700
 126382236.488 6  98479762.27843  24049758.406
  24049761.375          41.600          22.900
 106970267.479 7  83353483.504 8  20355757.203    20355760.020
  20355760.254          43.900          50.500
 111853951.842 8  87158952.638 8  21285093.742    21285096.039
  21285096.098          48.800          48.200
 119942860.125 7  93462067.67045  22824381.516
  22824382.074          43.000          32.400
 121043513.304 7  94319658.03745  23033804.117
  23033805.477          47.200          32.200
 127996366.018 6  99737437.37043  24356896.219
  24356897.305          39.400          22.900
 109719618.229 7  85495834.82346  20878941.000
  20878943.133          47.800          40.500
 111348921.057 7  86765425.099 8  21188989.180    21188994.766
  21188994.668          47.500          49.800
 21  2  1  0  5  0.0000000  0 11G01G07G08G13G14G17G19G21G22G28G30
 108646910.483 7  84660008.971 8  20674814.016    20674819.770
  20674819.863          46.900          49.000
 120487701.451 7  93886543.032 6  22928041.914    22928043.945
  22928044.152          43.400          40.700
 129862270.588 5 101191481.925 6  24711968.992    24711975.055
  24711973.934          35.000          40.800
 126407979.326 7  98499821.59843  24054657.195
  24054660.660          42.000          22.200
 106961175.418 7  83346398.790 8  20354027.516    20354030.250
  20354030.301          44.300          51.000
 111834294.385 8  87143635.123 7  21281352.969    21281355.531
  21281355.352          49.900          47.700
 119901064.786 7  93429499.88245  22816427.414
  22816428.793          43.800          31.800
 121082009.495 7  94349655.06545  23041129.500
  23041130.984          46.200          30.300
 127970117.231 6  99716983.80244  24351900.898
  24351902.453          40.400          25.100
 109705285.077 7  85484666.13846  20876213.539
  20876215.102          47.700          40.600
 111381362.786 7  86790704.365 8  21195162.781    21195168.242
  21195167.883          47.200          49.400
 21  2  1  0  5 15.0000000  0 11G01G07G08G13G14G17G19G21G22G28G30
 108661447.728 7  84671336.695 8  20677580.602    20677585.715
  20677585.637          45.600          49.100
 120541167.240 7  93928204.687 6  22938215.969    22938219.316
  22938219.359          43.800          40.100
 129908859.965 6 101227785.278 6  24720834.234    24720841.219
  24720839.883          36.900          39.000
 126433819.601 6  98519956.90743  24059574.180
  24059577.641          40.400          23.000
 106952162.942 7  83339376.084 8  20352311.992    20352315.164
  20352315.441          44.200          50.900
 111814711.774 8  87128375.974 8  21277626.695    21277628.879
  21277629.023          49.500          48.000
 119859327.245 7  93396977.12345  22808485.328
  22808485.941          42.800          31.900
 121120583.219 7  94379712.52245  23048469.484
  23048471.129          45.800          30.600
 127943946.187 6  99696590.82044  24346920.203
  24346922.820          37.700          25.000
 109691001.091 7  85473535.76846  20873495.297
  20873497.461          47.600          40.800
 111413924.431 8  86816077.071 8  21201358.961    21201364.996
  21201364.855          48.800          50.300
 21  2  1  0  5 30.0000000  0 12G01G03G07G08G13G14G17G19G21G22G28G30
 108676145.645 7  84682789.614 8  20680377.727    20680382.652
  20680382.645          47.500          48.800
 131043657.956 5 102111962.50115  24936777.258    24936784.977
                        30.800          35.200
 120594687.042 7  93969908.394 6  22948400.391    22948403.270
  22948403.387          43.700          41.300
 129955440.545 6 101264081.833 6  24729699.875    24729704.926
  24729704.535          37.100          40.000
 126459757.193 6  98540168.04043  24064510.125
  24064513.180          41.800          22.000
 106943230.181 7  83332415.496 8  20350612.094    20350615.254
  20350615.594          44.400          50.900
 111795203.969 8  87113175.075 8  21273914.406    21273916.785
  21273917.180          49.700          48.600
 119817647.584 7  93364499.51445  22800553.414
  22800554.945          43.300          32.400
 121159234.236 7  94409830.19545  23055824.211
  23055825.953          46.000          31.600
 127917853.240 6  99676258.62044  24341957.203
  24341957.438          37.900          24.400
 109676766.540 7  85462443.90546  20870787.016
  20870788.668          47.200          39.800
 111446605.778 8  86841543.055 8  21207578.211    21207583.414
  21207583.223          49.100          50.000
 21  2  1  0  5 45.0000000  0 13G01G03G06G07G08G13G14G17G19G21G22G28
                                G30
 108691004.228 7  84694367.749 8  20683205.531    20683210.172
  20683210.352          47.100          49.000
 131002183.592 5 102079644.789 5  24928888.461    24928892.348
  24928893.922          33.600          35.900
 131922119.931 5 102796480.674 6  25103945.305    25103952.195
  25103951.199          35.200          38.200
 120648260.597 7  94011654.007 6  22958594.711    22958598.488
  22958598.172          42.100          41.100
 130002012.532 6 101300371.712 6  24738561.188    24738567.246
  24738567.148          36.700          40.200
 126485791.884 6  98560454.78043  24069464.164
  24069467.535          40.100          21.700
 106934377.499 7  83325517.316 8  20348927.648    20348929.965
  20348930.512          43.900          51.200
 111775771.074 8  87098032.570 7  21270216.023    21270218.520
  21270218.254          49.100          47.600
 119776026.074 7  93332067.17445  22792633.078
  22792635.367          44.600          33.200
 121197962.479 7  94440008.05045  23063193.734
  23063195.680          46.600          31.200
 127891838.629 6  99655987.53544  24337005.352
  24337006.613          41.000          26.000
 109662581.767 7  85451390.84646  20868087.070
  20868088.570          46.400          40.200
 111479406.765 8  86867102.246 8  21213819.453    21213825.367
  21213825.137          48.000          50.400
 21  2  1  0  6  0.0000000  0 13G01G03G06G07G08G13G14G17G19G21G22G28
                                G30
 108706023.252 7  84706070.884 8  20686063.125    20686068.609
  20686068.707          47.500          50.000
 130960723.277 4 102047338.095 5  24920992.547    24921002.449
  24921002.984          29.100          34.700
 131864024.845 5 102751211.822 6  25092890.414    25092897.406
  25092896.516          34.600          36.900
 120701887.524 7  94053441.187 6  22968799.891    22968803.516
  22968803.074          43.600          41.400
 130048575.566 6 101336654.579 6  24747422.406    24747428.328
  24747427.629          37.900          39.000
 126511923.188 6  98580816.82443  24074437.773
  24074439.902          39.200          22.000
 106925604.927 7  83318681.560 8  20347257.789    20347261.195
  20347261.336          44.300          51.000
 111756412.965 8  87082948.351 8  21266532.516    21266535.164
  21266535.148          49.000          48.000
 119734462.559 7  93299680.02845  22784724.430
  22784726.453          44.200          33.300
 121236767.454 7  94470245.70345  23070578.586
  23070580.836          44.700          30.000
 127865902.792 6  99635777.84144  24332070.172
  24332071.051          41.600          27.100
 109648446.802 7  85440376.59246  20865397.602
  20865399.254          46.900          39.000
 111512327.080 8  86892754.451 8  21220084.531    21220089.707
  21220089.684          48.800          50.000
 21  2  1  0  6 15.0000000  0 13G01G03G06G07G08G13G14G17G19G21G22G28
                                G30
 108721202.457 7  84717898.815 8  20688951.047    20688957.336
  20688957.641          47.200          50.200
 130919277.048 5 102015042.376 5  24913106.922    24913116.090
  24913115.563          30.700          33.200
 131805930.794 5 102705943.820 6  25081834.680    25081842.363
  25081841.684          35.700          36.700
 120755567.484 7  94095269.680 7  22979015.047    22979018.832
  22979018.637          44.400          42.600
 130095129.561 6 101372930.432 6  24756281.516    24756287.246
  24756286.383          37.200          38.900
 126538150.709 6  98601253.85243  24079427.961
  24079430.180          40.900          22.300
 106916912.548 7  83311908.269 8  20345603.742    20345606.898
  20345607.301          45.300          50.200
 111737129.500 8  87067922.275 8  21262862.922    21262865.063
  21262866.020          48.700          48.200
 119692957.065 7  93267338.11745  22776825.867
  22776827.598          45.300          33.400
 121275648.707 7  94500542.80545  23077977.133
  23077979.277          45.400          31.300
 127840046.029 6  99615629.75644  24327149.492
  24327151.387          40.800          27.700
 109634361.615 7  85429401.12646  20862717.188
  20862719.121          45.900          39.300
 111545366.383 8  86918499.327 8  21226371.641    21226376.973
  21226376.785          48.000          48.700
 21  2  1  0  6 30.0000000  0 13G01G03G06G07G08G13G14G17G19G21G22G28
                                G30
 108736541.561 7  84729851.368 8  20691869.953    20691875.922
  20691876.453          46.100          50.200
 130877845.546 5 101982758.130 6  24905224.164    24905231.266
  24905230.859          35.200          36.200
 131747837.916 5 102660676.704 6  25070780.375    25070788.598
  25070787.426          35.500          37.800
 120809300.011 7  94137139.144 6  22989240.359    22989243.938
  22989243.895          43.200          41.800
 130141674.358 6 101409199.064 6  24765137.961    24765143.996
  24765143.250          36.500          38.700
 126564474.090 6  98621765.57843  24084436.727
  24084438.984          39.400          22.300
 106908300.413 7  83305197.498 8  20343964.922    20343967.664
  20343968.250          44.600          49.800
 111717920.594 8  87052954.295 7  21259207.367    21259210.316
  21259210.320          49.600          47.700
 119651509.847 7  93235041.59145  22768938.336
  22768940.098          44.400          33.300
 121314606.030 7  94530899.13045  23085390.883
  23085392.660          45.400          31.300
 127814268.517 6  99595543.36544  24322245.734
  24322246.469          40.800          28.300
 109620326.291 7  85418464.50946  20860046.477
  20860048.598          46.200          39.000
 111578524.280 7  86944336.668 8  21232681.922    21232686.477
  21232686.238          47.000          48.400
 21  2  1  0  6 45.0000000  0 13G01G03G06G07G08G13G14G17G19G21G22G28
                                G30
 108752040.308 7  84741928.297 8  20694820.000    20694825.297
  20694825.672          46.600          49.900
 130836428.956 5 101950485.434 5  24897342.734    24897349.934
  24897349.738          35.900          34.500
 131689746.448 5 102615410.682 6  25059725.906    25059734.051
  25059732.703          35.100          37.300
 120863084.620 7  94179049.211 7  22999475.508    22999478.422
  22999478.480          43.700          42.700
 130188209.663 6 101445460.344 6  24773994.203    24773999.715
  24773999.137          37.200          38.600
 126590892.927 6  98642351.69643  24089463.836
  24089466.680          39.600          22.500
 106899768.528 7  83298549.264 8  20342341.836    20342344.258
  20342344.461          45.700          50.100
 111698786.263 8  87038044.444 8  21255566.281    21255568.840
  21255568.910          50.200          48.500
 119610120.595 7  93202790.23245  22761062.508
  22761064.512          45.300          32.200
 121353638.804 7  94561314.28345  23092818.258
  23092820.223          44.800          31.600
 127788570.408 7  99575518.87744  24317354.664
  24317355.953          42.300          28.800
 109606340.863 7  85407566.77546  20857384.672
  20857386.770          45.200          39.600
 111611800.493 8  86970266.169 8  21239014.109    21239019.207
  21239018.594          48.200          49.100
 21  2  1  0  7  0.0000000  0 13G01G03G06G07G08G13G14G17G19G21G22G28
                                G30
 108767698.884 8  84754129.797 8  20697799.891    20697804.148
  20697804.414          48.200          48.600
 130795028.104 5 101918224.981 5  24889464.266    24889471.539
  24889471.207          34.600          34.800
 131631657.154 5 102570146.387 6  25048672.039    25048680.121
  25048679.367          34.300          39.700
 120916921.400 7  94220999.943 7  23009720.969    23009723.277
  23009723.320          44.200          42.400
 130234735.837 6 101481714.511 6  24782847.570    24782853.129
  24782852.473          37.100          37.400
 126617407.265 6  98663012.19444  24094509.813
  24094512.668          41.800          24.100
 106891317.423 7  83291963.994 8  20340733.484    20340736.203
  20340736.461          45.400          50.200
 111679726.675 8  87023192.815 7  21251939.711    21251942.109
  21251942.348          49.500          47.900
 119568789.803 7  93170584.42145  22753198.055
  22753199.359          44.000          33.600
 121392747.270 7  94591788.39145  23100261.031
  23100262.066          44.600          31.000
 127762952.419 7  99555556.86044  24312479.305
  24312480.563          43.500          27.300
 109592405.832 7  85396708.31046  20854733.109
  20854735.098          45.400          39.200
 111645195.086 8  86996287.943 8  21245368.281    21245373.660
  21245373.371          48.000          48.300
 21  2  1  0  7 15.0000000  0 13G01G03G06G07G08G13G14G17G19G21G22G28
                                G30
 108783516.676 7  84766455.354 8  20700809.992    20700814.363
  20700814.250          47.600          48.300
 130753642.889 5 101885976.805 5  24881589.867    24881597.059
  24881595.758          35.200          35.300
 131573569.747 5 102524883.535 6  25037618.570    25037626.117
  25037625.582          34.300          40.400
 120970809.616 7  94262990.729 6  23019974.852    23019978.031
  23019977.895          44.100          41.000
 130281252.384 6 101517961.124 6  24791699.000    24791704.465
  24791704.703          36.600          38.400
 126644016.298 6  98683746.49943  24099573.242
  24099575.719          40.200          22.500
 106882946.847 7  83285441.453 8  20339140.617    20339143.371
  20339143.895          45.700          50.300
 111660741.343 8  87008399.074 7  21248326.133    21248328.719
  21248328.949          49.300          47.500
 119527517.206 7  93138423.99845  22745343.477
  22745344.906          44.500          33.000
 121431930.668 7  94622320.91445  23107716.945
  23107718.594          45.700          31.800
 127737414.523 7  99535657.23944  24307619.594
  24307621.441          42.100          27.600
 109578520.915 7  85385888.89046  20852090.984
  20852092.688          46.100          40.000
 111678707.439 8  87022401.453 8  21251745.695    21251750.750
  21251750.590          49.100          48.200
 21  2  1  0  7 30.0000000  0 13G01G03G06G07G08G13G14G17G19G21G22G28
                                G30
 108799493.684 8  84778905.001 8  20703849.789    20703854.906
  20703854.832          48.700          48.200
 130712273.801 6 101853741.148 5  24873717.258    24873724.016
  24873722.102          39.200          35.600
 131515484.789 5 102479622.583 6  25026563.664    25026572.949
  25026572.129          33.300          40.100
 121024749.126 7  94305021.494 6  23030239.414    23030241.840
  23030241.680          44.900          40.400
 130327759.358 5 101554200.332 6  24800547.961    24800554.727
  24800555.102          35.000          38.400
 126670719.780 6  98704554.42243  24104654.961
  24104657.469          40.200          23.000
 106874657.093 7  83278981.900 8  20337563.266    20337565.961
  20337566.398          45.000          50.100
 111641830.532 7  86993663.374 7  21244727.961    21244730.387
  21244730.918          47.700          47.600
 119486303.204 7  93106309.18245  22737500.859
  22737501.688          44.700          32.600
 121471188.982 7  94652911.80545  23115188.172
  23115188.805          45.600          30.800
 127711957.282 7  99515820.41944  24302775.281
  24302776.391          42.900          25.800
 109564686.417 7  85375108.74546  20849458.570
  20849460.535          46.700          40.300
 111712337.422 8  87048606.635 8  21258145.180    21258150.199
  21258149.660          48.100          48.400
 21  2  1  0  7 45.0000000  0 13G01G03G06G07G08G13G14G17G19G21G22G28
                                G30
 108815629.815 8  84791478.623 8  20706920.281    20706925.676
  20706925.641          48.300          49.100
 130670921.459 6 101821518.540 5  24865848.813    24865855.492
  24865853.234          39.800          35.400
 131457402.643 5 102434363.856 6  25015510.727    25015520.508
  25015519.762          34.300          39.300
 121078739.505 7  94347091.917 6  23040513.219    23040515.875
  23040515.977          44.200          40.500
 130374256.625 5 101590431.941 6  24809397.195    24809402.223
  24809402.816          33.700          38.300
 126697517.570 6  98725435.79443  24109754.430
  24109757.609          41.100          22.900
 106866448.358 7  83272585.490 8  20336000.820    20336003.887
  20336004.324          45.200          51.000
 111622994.160 8  86978985.676 7  21241143.547    21241146.070
  21241146.039          48.300          47.700
 119445147.863 7  93074240.08745  22729668.883
  22729669.844          44.600          32.500
 121510521.952 7  94683560.88745  23122672.695
  23122673.793          46.300          32.400
 127686581.027 6  99496046.74444  24297945.797
  24297947.113          41.700          24.700
 109550902.516 7  85364368.03946  20846835.352
  20846836.984          46.600          41.100
 111746084.915 8  87074903.376 8  21264567.352    21264571.805
  21264572.324          48.600          49.400
 21  2  1  0  8  0.0000000  0 13G01G03G06G07G08G13G14G17G19G21G22G28
                                G30
 108831924.695 8  84804175.925 8  20710021.000    20710026.480
  20710026.961          48.100          49.500
 130629585.969 6 101789309.099 6  24857981.555    24857988.910
  24857987.512          37.600          36.400
 131399323.513 5 102389107.420 6  25004459.180    25004468.379
  25004467.559          34.600          39.000
 121132780.380 7  94389201.716 6  23050797.023    23050799.594
  23050799.551          43.800          41.100
 130420744.170 5 101626655.968 6  24818244.180    24818248.992
  24818248.586          32.900          38.000
 126724409.266 6  98746390.37944  24114871.555
  24114874.844          40.500          25.300
 106858320.677 7  83266252.224 8  20334454.188    20334457.727
  20334457.824          45.200          50.700
 111604231.875 8  86964365.727 7  21237573.305    21237575.469
  21237575.418          49.000          47.500
 119404051.171 7  93042216.68245  22721849.211
  22721849.488          44.100          33.500
 121549929.123 7  94714267.78445  23130171.344
  23130172.852          45.200          30.900
 127661285.865 6  99476336.20744  24293133.563
  24293133.258          40.000          25.200
 109537169.181 7  85353666.74946  20844221.938
  20844224.199          47.400          41.000
 111779949.432 8  87101291.319 8  21271010.992    21271016.590
  21271016.215          48.900          48.700
 21  2  1  0  8 15.0000000  0 13G01G03G06G07G08G13G14G17G19G21G22G28
                                G30
 108848378.374 7  84816996.977 8  20713152.156    20713157.258
  20713157.465          47.500          49.500
 130588268.046 6 101757113.343 6  24850119.961    24850126.426
  24850125.465          38.100          38.500
 131341247.800 5 102343853.687 6  24993408.727    24993416.418
  24993415.770          35.700          38.400
 121186871.624 7  94431350.698 6  23061089.125    23061092.266
  23061092.613          42.900          41.400
 130467221.760 5 101662872.315 6  24827085.523    24827093.984
  24827093.801          32.800          37.700
 126751394.593 6  98767417.91344  24120006.867
  24120010.414          41.500          25.300
 106850274.333 7  83259982.366 8  20332922.813    20332926.262
  20332926.676          44.600          51.300
 111585543.885 8  86949803.657 7  21234017.273    21234019.684
  21234019.605          48.300          47.300
 119363013.354 7  93010239.18345  22714039.977
  22714040.816          45.100          33.500
 121589410.411 7  94745032.41745  23137684.977
  23137686.094          45.800          32.100
 127636072.367 6  99456689.28143  24288336.031
  24288333.664          41.400          22.900
 109523486.732 8  85343005.09146  20841618.398
  20841620.258          48.400          40.600
 111813930.923 8  87127770.408 8  21277477.641    21277483.438
  21277483.180          48.800          49.300
 21  2  1  0  8 30.0000000  0 13G01G03G06G07G08G13G14G17G19G21G22G28
                                G30
 108864990.493 8  84829941.469 8  20716313.344    20716318.242
  20716318.434          48.000          48.200
 130546967.824 6 101724931.357 6  24842259.406    24842266.719
  24842266.316          36.500          39.200
 131283175.743 6 102298602.780 6  24982357.953    24982365.160
  24982364.598          36.800          38.700
 121241012.766 7  94473538.600 6  23071392.547    23071394.965
  23071394.992          42.300          39.500
 130513689.552 5 101699080.984 6  24835929.453    24835936.969
  24835935.941          33.500          38.000
 126778473.110 6  98788518.02144  24125159.719
  24125162.859          40.500          24.800
 106842309.360 7  83253775.896 8  20331407.844    20331410.797
  20331410.977          44.300          51.100
 111566930.241 8  86935299.538 7  21230474.875    21230477.363
  21230477.316          49.100          47.800
 119322034.271 7  92978307.44245  22706241.500
  22706243.191          45.600          33.100
 121628965.346 7  94775854.44045  23145211.594
  23145213.078          45.600          31.900
 127610940.571 7  99437106.11943  24283552.242
  24283551.070          42.600          22.000
 109509855.196 7  85332383.12146  20839024.117
  20839026.500          47.600          41.200
 111848029.031 8  87154340.363 8  21283966.180    21283971.961
  21283971.586          48.700          49.400
 21  2  1  0  8 45.0000000  0 13G01G03G06G07G08G13G14G17G19G21G22G28
                                G30
 108881760.934 8  84843009.352 8  20719504.875    20719509.840
  20719510.066          48.000          48.000
 130505685.829 6 101692763.591 6  24834404.203    24834411.332
  24834411.078          37.300          39.800
 131225107.664 6 102253354.968 6  24971308.969    24971315.527
  24971314.984          37.100          38.700
 121295203.476 7  94515765.118 6  23081705.438    23081707.449
  23081707.109          43.600          39.500
 130560147.149 5 101735281.735 6  24844770.453    24844777.172
  24844776.051          33.000          36.500
 126805644.519 6  98809690.56644  24130329.977
  24130333.723          40.500          25.000
 106834425.961 7  83247633.003 8  20329907.305    20329910.473
  20329910.520          45.400          51.500
 111548390.832 8  86920853.236 8  21226947.031    21226949.102
  21226949.688          48.400          48.200
 119281114.061 7  92946421.57845  22698454.453
  22698455.914          44.600          32.600
 121668593.683 7  94806733.64945  23152752.773
  23152754.129          45.500          31.200
 127585891.125 6  99417587.07543  24278786.813
  24278784.707          40.200          21.700
 109496274.933 7  85321801.08946  20836440.211
  20836442.207          47.500          40.400
 111882243.555 8  87181001.015 8  21290477.023    21290482.523
  21290482.336          48.700          49.200
 21  2  1  0  9  0.0000000  0 13G01G03G06G07G08G13G14G17G19G21G22G28
                                G30
 108898689.322 7  84856200.315 8  20722725.672    20722731.414
  20722731.500          47.400          48.100
 130464422.229 5 101660610.147 6  24826552.852    24826559.328
  24826559.477          35.500          39.400
 131167043.629 6 102208110.279 6  24960259.047    24960266.105
  24960265.266          37.200          38.200
 121349443.031 7  94558029.693 6  23092025.594    23092028.828
  23092029.043          43.500          39.900
 130606594.696 5 101771474.620 6  24853608.547    24853615.246
  24853614.168          34.900          36.100
 126832908.281 6  98830935.04743  24135517.516
  24135521.656          39.900          22.200
 106826624.066 7  83241553.603 8  20328422.695    20328425.551
  20328425.793          45.900          51.900
 111529925.114 8  86906464.377 7  21223433.016    21223435.633
  21223435.141          48.000          46.400
 119240252.711 7  92914581.57245  22690678.898
  22690680.137          44.700          33.600
 121708294.888 7  94837669.66345  23160307.117
  23160309.156          45.700          30.900
 127560923.954 7  99398132.11543  24274035.609
  24274034.277          43.600          23.900
 109482745.605 8  85311258.76646  20833865.391
  20833867.535          48.000          40.800
 111916573.959 8  87207751.997 8  21297010.109    21297015.563
  21297015.020          48.100          49.200
 21  2  1  0  9 15.0000000  0 13G01G03G06G07G08G13G14G17G19G21G22G28
                                G30
 108915775.709 7  84869514.381 8  20725977.633    20725982.621
  20725982.805          47.100          48.300
 130423177.680 6 101628471.531 6  24818704.336    24818711.195
  24818711.281          36.600          36.600
 131108984.301 6 102162869.248 6  24949210.211    24949217.668
  24949217.066          38.700          37.000
 121403731.575 7  94600332.434 6  23102357.859    23102359.453
  23102359.848          42.100          40.200
 130653031.998 6 101807659.483 6  24862446.461    24862452.441
  24862451.688          36.700          37.200
 126860264.292 6  98852251.39843  24140723.227
  24140727.305          39.200          22.000
 106818904.048 7  83235538.005 8  20326953.820    20326956.789
  20326957.129          46.400          51.900
 111511533.598 8  86892133.330 7  21219933.383    21219936.051
  21219935.215          48.600          46.800
 119199450.497 7  92882787.63245  22682915.109
  22682916.027          45.000          33.200
 121748068.962 7  94868662.44245  23167875.773
  23167878.047          45.600          31.500
 127536039.592 6  99378741.72243  24269299.977
  24269299.516          40.800          21.800
 109469267.680 8  85300756.49346  20831300.570
  20831302.453          48.100          40.600
 111951020.304 8  87234593.276 8  21303565.125    21303570.301
  21303569.793          48.700          49.300
 21  2  1  0  9 30.0000000  0 13G01G03G06G07G08G13G14G17G19G21G22G28
                                G30
 108933019.707 7  84882951.271 8  20729259.438    20729264.527
  20729264.875          46.800          48.200
 130381952.333 6 101596347.933 6  24810858.234    24810866.211
  24810866.031          37.100          38.300
 131050929.764 6 102117632.001 5  24938162.797    24938171.262
  24938169.977          38.000          35.100
 121458068.416 7  94642672.841 6  23112698.016    23112699.410
  23112700.160          43.700          40.800
 130699458.826 5 101843836.247 6  24871280.930    24871287.215
  24871287.230          35.700          39.000
 126887712.141 6  98873639.33743  24145946.844
  24145950.758          40.200          22.200
 106811265.892 7  83229586.202 8  20325500.508    20325502.949
  20325503.418          46.000          51.100
 111493215.947 8  86877859.833 8  21216447.281    21216449.867
  21216450.438          48.900          48.800
 119158707.278 7  92851039.70145  22675161.375
  22675162.598          45.100          32.700
 121787915.545 7  94899711.72645  23175458.594
  23175460.492          45.800          32.100
 127511238.322 6  99359416.01443  24264581.000
  24264579.965          38.300          22.300
 109455841.123 7  85290294.24946  20828745.828
  20828747.375          47.500          40.800
 111985582.134 7  87261524.581 8  21310141.844    21310146.973
  21310146.906          47.600          48.800
 21  2  1  0  9 45.0000000  0 13G01G03G06G07G08G13G14G17G19G21G22G28
                                G30
 108950421.113 7  84896510.811 8  20732571.008    20732575.855
  20732576.156          47.600          48.900
 130340746.748 5 101564239.730 6  24803017.742    24803025.520
  24803025.426          35.900          39.800
 130992880.260 6 102072398.664 6  24927116.313    24927124.203
  24927123.141          37.500          36.000
 121512453.500 7  94685050.812 6  23123046.172    23123049.055
  23123049.363          44.200          41.100
 130745875.117 5 101880004.797 6  24880113.234    24880119.961
  24880119.305          35.500          38.800
 126915251.558 6  98895098.61943  24151188.313
  24151190.805          39.700          21.300
 106803709.773 7  83223698.301 8  20324062.617    20324064.563
  20324064.738          45.700          50.500
 111474972.132 8  86863643.877 8  21212975.727    21212978.645
  21212978.777          48.200          48.200
 119118023.237 7  92819337.87545  22667419.078
  22667420.563          43.900          33.300
 121827834.215 7  94930817.20445  23183054.758
  23183057.754          45.000          32.300
 127486520.534 6  99340155.44143  24259876.523
  24259875.273          39.400          21.100
 109442466.033 8  85279872.10846  20826200.359
  20826201.980          48.500          40.500
 112020259.207 8  87288545.673 8  21316741.117    21316746.105
  21316745.996          49.300          49.100
 21  2  1  0 10  0.0000000  0 13G01G03G06G07G08G13G14G17G19G21G22G28
                                G30
 108967979.902 7  84910192.986 8  20735912.336    20735917.297
  20735917.699          47.500          49.500
 130299561.329 6 101532147.189 6  24795179.703    24795188.078
  24795188.730          36.000          41.000
 130934836.300 6 102027169.641 6  24916070.781    24916078.676
  24916077.711          37.500          36.800
 121566886.450 7  94727466.089 7  23133405.625    23133407.449
  23133407.672          44.700          42.900
 130792280.895 5 101916165.133 6  24888944.461    24888951.047
  24888950.023          35.500          37.900
 126942882.090 6  98916628.87443  24156445.680
  24156448.355          38.100          18.600
 106796235.876 7  83217874.487 8  20322640.539    20322642.551
  20322642.590          45.600          50.600
 111456802.306 8  86849485.585 8  21209518.148    21209520.656
  21209520.832          48.900          48.600
 119077398.625 7  92787682.32045  22659688.875
  22659690.305          44.900          33.300
 121867824.711 7  94961978.62245  23190665.461
  23190667.652          45.400          32.300
 127461886.373 6  99320960.05243  24255188.625
  24255187.195          40.400          21.100
 109429142.759 7  85269490.34846  20823665.430
  20823667.234          47.200          40.400
 112055051.362 8  87315656.437 8  21323361.609    21323366.863
  21323366.414          48.900          48.400
 21  2  1  0 10 15.0000000  0 13G01G03G06G07G08G13G14G17G19G21G22G28
                                G30
 108985695.867 7  84923997.628 8  20739283.047    20739288.352
  20739288.863          47.000          49.000
 130258396.491 6 101500070.714 5  24787346.906    24787354.031
  24787354.418          36.200          35.700
 130876798.112 6 101981945.098 6  24905025.992    24905034.137
  24905033.461          37.800          38.300
 121621366.946 7  94769918.410 6  23143772.141    23143775.582
  23143775.637          45.400          41.200
 130838676.223 5 101952317.308 6  24897772.547    24897779.605
  24897779.004          35.700          40.300
 126970603.418 6  98938229.93343  24161720.781
  24161722.938          39.100          19.900
 106788844.419 7  83212114.901 8  20321233.492    20321235.664
  20321235.629          45.000          50.500
 111438706.352 8  86835384.854 8  21206074.430    21206077.316
  21206077.918          48.300          49.300
 119036833.452 7  92756073.10345  22651969.203
  22651970.680          44.700          32.700
 121907887.002 7  94993196.00945  23198288.453
  23198290.645          46.300          32.100
 127437336.376 6  99301830.22643  24250516.844
  24250516.031          40.800          22.200
 109415871.498 8  85259149.12246  20821139.805
  20821141.789          48.900          39.600
 112089958.321 8  87342856.649 8  21330004.430    21330009.359
  21330009.414          48.500          49.100
 21  2  1  0 10 30.0000000  0 13G01G03G06G07G08G13G14G17G19G21G22G28
                                G30
 109003568.795 7  84937924.578 8  20742684.313    20742689.645
  20742690.078          46.600          49.400
 130217252.590 6 101468010.546 6  24779518.406    24779523.828
  24779524.570          37.900          36.100
 130818766.005 5 101936725.326 6  24893983.313    24893991.059
  24893990.785          35.500          38.600
 121675894.595 7  94812407.472 7  23154147.828    23154151.895
  23154151.801          43.500          42.600
 130885060.721 6 101988461.098 6  24906600.039    24906605.766
  24906605.574          37.400          39.000
 126998415.307 6  98959901.53543  24167012.047
  24167015.984          40.100          21.500
 106781535.481 7  83206419.635 8  20319842.617    20319844.828
  20319845.266          45.900          50.900
